[
    {
        "id": "941",
        "name": "12 месяцев",
        "details": {
            "map.lat": 51.141409660873,
            "map.lon": 71.476547029508,
            "map.zoom": 18,
            "map.street": "Алтыбакан",
            "map.house_num": "1",
            "map.corner_street": "",
            "house.year": 2018,
            "flat.building": 1,
            "ceiling": 2.7,
            "flat.parking": 1,
            "house.floor_num": 12
        }
    },
    {
        "id": "467",
        "name": "13 магистраль",
        "details": {
            "map.lat": 51.137534493586,
            "map.lon": 71.47081196308,
            "map.zoom": 12,
            "map.street": "Б. Момышулы",
            "map.house_num": "4",
            "map.corner_street": "",
            "house.year": 2005,
            "flat.building": 1,
            "ceiling": 2.7,
            "flat.parking": 1,
            "house.floor_num": 9
        }
    },
    {
        "id": "967",
        "name": "3 гектара",
        "details": {
            "map.lat": 51.154861719445,
            "map.lon": 71.521094698798,
            "map.zoom": 13,
            "map.street": "Кобланды батыра",
            "map.house_num": "7",
            "map.corner_street": "",
            "house.year": 2016,
            "flat.building": 1,
            "ceiling": 2.7,
            "flat.parking": 1,
            "house.floor_num": 9
        }
    },
    {
        "id": "717",
        "name": "5 Звёзд",
        "details": {
            "map.lat": 51.142145675526,
            "map.lon": 71.448287187958,
            "map.zoom": 16,
            "map.street": "Шарля де Голля",
            "map.house_num": "1",
            "map.corner_street": "",
            "house.year": 2015,
            "flat.building": 3,
            "ceiling": 3,
            "flat.parking": 1,
            "house.floor_num": 7
        }
    },
    {
        "id": "1183",
        "name": "5 элемент",
        "details": {
            "map.lat": 51.159761022859,
            "map.lon": 71.40146613121,
            "map.zoom": 9,
            "map.street": "Шыганак",
            "map.house_num": "3",
            "map.corner_street": "",
            "house.year": 2018,
            "flat.building": 1,
            "ceiling": 4.6,
            "flat.parking": 1,
            "house.floor_num": 12
        }
    },
    {
        "id": "610",
        "name": "6 микрорайон",
        "details": {
            "map.lat": 51.148833671224,
            "map.lon": 71.47935872071,
            "map.zoom": 17,
            "map.street": "Кюйши Дины",
            "map.house_num": "25",
            "map.corner_street": "",
            "house.year": 2004,
            "flat.building": 3,
            "ceiling": 2.7,
            "flat.parking": 0,
            "house.floor_num": 9
        }
    },
    {
        "id": "406",
        "name": "7 Бочек",
        "details": {
            "map.lat": 51.126934230393,
            "map.lon": 71.410334518077,
            "map.zoom": 12,
            "map.street": "Сыганак",
            "map.house_num": "3",
            "map.corner_street": "",
            "house.year": 2005,
            "flat.building": 3,
            "ceiling": 2.7,
            "flat.parking": 1,
            "house.floor_num": 9
        }
    },
    {
        "id": "300",
        "name": "7 Континент",
        "details": {
            "map.lat": 51.1653934537,
            "map.lon": 71.433062720389,
            "map.zoom": 11,
            "map.street": "Баянауыл",
            "map.house_num": "1",
            "map.corner_street": "",
            "house.year": 2009,
            "flat.building": 3,
            "ceiling": 3,
            "flat.parking": 1,
            "house.floor_num": 19
        }
    },
    {
        "id": "822",
        "name": "7Я",
        "details": {
            "map.lat": 51.145527234562,
            "map.lon": 71.456707647884,
            "map.zoom": 14,
            "map.street": "Тауелсиздик",
            "map.house_num": "21/9",
            "map.corner_street": "",
            "house.year": 2016,
            "flat.building": 3,
            "ceiling": 2.7,
            "flat.parking": 0,
            "house.floor_num": 24
        }
    },
    {
        "id": "2913",
        "name": "A-City",
        "details": {
            "map.lat": 51.11614418398,
            "map.lon": 71.500186139302,
            "map.zoom": 15,
            "map.street": "Жургенова",
            "map.house_num": "",
            "map.corner_street": "Байтурсынова",
            "house.year": 2025,
            "flat.building": 3,
            "ceiling": 3,
            "flat.parking": 1,
            "house.floor_num": 4
        }
    },
    {
        "id": "3294",
        "name": "ABADAN",
        "details": {
            "map.lat": 51.124270100167,
            "map.lon": 71.357397522048,
            "map.zoom": 12,
            "map.street": "Айтматова",
            "map.house_num": "",
            "map.corner_street": "Молдагалиева",
            "house.year": 2025,
            "flat.building": 1,
            "ceiling": 2.7,
            "flat.parking": 1,
            "house.floor_num": 9
        }
    },
    {
        "id": "3449",
        "name": "ABYROI",
        "details": {
            "map.lat": 51.079654882288,
            "map.lon": 71.438873408163,
            "map.zoom": 16,
            "map.street": "Турар Рыскулов",
            "map.house_num": "18/5",
            "map.corner_street": "",
            "house.year": 2026,
            "flat.building": 1,
            "ceiling": 3,
            "flat.parking": 1
        }
    },
    {
        "id": "2070",
        "name": "AIQYN",
        "details": {
            "map.lat": 51.083554108781,
            "map.lon": 71.425539851134,
            "map.zoom": 9,
            "map.street": "Мангелик Ел",
            "map.house_num": "",
            "map.corner_street": "Т. Рыскулова",
            "house.year": 2024,
            "flat.building": 3,
            "ceiling": 3,
            "flat.parking": 1
        }
    },
    {
        "id": "3163",
        "name": "AITAS",
        "details": {
            "map.lat": 51.139466887708,
            "map.lon": 71.370932044363,
            "map.zoom": 16,
            "map.street": "Илияс Омаров",
            "map.house_num": "12/1",
            "map.corner_street": "",
            "house.year": 2024,
            "flat.building": 1,
            "ceiling": 3,
            "flat.parking": 1,
            "house.floor_num": 12
        }
    },
    {
        "id": "3266",
        "name": "ALTYN ADAM",
        "details": {
            "map.lat": 51.105721560347,
            "map.lon": 71.445883663056,
            "map.zoom": 15,
            "map.street": "Керей-Жанибек хандар",
            "map.house_num": "44/4",
            "map.corner_street": "",
            "house.year": 2024,
            "flat.building": 1,
            "ceiling": 3.3,
            "flat.parking": 1,
            "house.floor_num": 7
        }
    },
    {
        "id": "2047",
        "name": "AMAN",
        "details": {
            "map.lat": 51.070138083327,
            "map.lon": 71.41907585364,
            "map.zoom": 12,
            "map.street": "Мангилик Ел",
            "map.house_num": "",
            "map.corner_street": "",
            "house.year": 2022,
            "flat.building": 3,
            "ceiling": 2.7,
            "flat.parking": 0
        }
    },
    {
        "id": "2587",
        "name": "AMANAT",
        "details": {
            "map.lat": 51.116496381077,
            "map.lon": 71.517164388025,
            "map.zoom": 12,
            "map.street": "Ахмет Байтурсынулы",
            "map.house_num": "46",
            "map.corner_street": "",
            "house.year": 2024,
            "flat.building": 3,
            "ceiling": 3,
            "flat.parking": 0,
            "house.floor_num": 9
        }
    },
    {
        "id": "2026",
        "name": "AQ Qayin",
        "details": {
            "map.lat": 51.108871797717,
            "map.lon": 71.439958214057,
            "map.zoom": 12,
            "map.street": "Аккум",
            "map.house_num": "24",
            "map.corner_street": "",
            "house.year": 2021,
            "flat.building": 1,
            "ceiling": 3,
            "flat.parking": 0,
            "house.floor_num": 9
        }
    },
    {
        "id": "3416",
        "name": "AQJUREK Белорусский квартал",
        "details": {
            "map.lat": 51.110199733498,
            "map.lon": 71.385334827867,
            "map.zoom": 16,
            "map.street": "Казыбек би",
            "map.house_num": "23",
            "map.corner_street": "",
            "house.year": 2025,
            "flat.building": 3,
            "ceiling": 2.65,
            "flat.parking": 1
        }
    },
    {
        "id": "1167",
        "name": "ASTORIA",
        "details": {
            "map.lat": 51.137259121134,
            "map.lon": 71.411937891388,
            "map.zoom": 4,
            "map.street": "Кайым Мухамедханов",
            "map.house_num": "1, 1/1, 1/2",
            "map.corner_street": "",
            "house.year": 2019,
            "flat.building": 3,
            "ceiling": 3.15,
            "flat.parking": 1,
            "house.floor_num": 14
        }
    },
    {
        "id": "2720",
        "name": "AUEN",
        "details": {
            "map.lat": 51.172396256993,
            "map.lon": 71.402581013708,
            "map.zoom": 11,
            "map.street": "Б.Сокпакбаева",
            "map.house_num": "",
            "map.corner_street": "Сарыарка",
            "house.year": 2023,
            "flat.building": 1,
            "ceiling": 3,
            "flat.parking": 1,
            "house.floor_num": 9
        }
    },
    {
        "id": "3003",
        "name": "AVIATOR ll",
        "details": {
            "map.lat": 51.04220142559,
            "map.lon": 71.426854133388,
            "map.zoom": 16,
            "map.street": "Сарытогай",
            "map.house_num": "13",
            "map.corner_street": "",
            "house.year": 2023,
            "flat.building": 1,
            "ceiling": 2.7,
            "flat.parking": 0,
            "house.floor_num": 7
        }
    },
    {
        "id": "2666",
        "name": "AYANA PLAZA",
        "details": {
            "map.lat": 51.113694232201,
            "map.lon": 71.518696546445,
            "map.zoom": 17,
            "map.street": "Нажимеденова",
            "map.house_num": "",
            "map.corner_street": "Улы Дала",
            "house.year": 2024,
            "flat.building": 3,
            "ceiling": 3,
            "flat.parking": 1
        }
    },
    {
        "id": "1749",
        "name": "AYLET",
        "details": {
            "map.lat": 51.127723825633,
            "map.lon": 71.495612584959,
            "map.zoom": 12,
            "map.street": "Ракымжан Кошкарбаев",
            "map.house_num": "48",
            "map.corner_street": "",
            "house.year": 2023,
            "flat.building": 3,
            "ceiling": 2.7,
            "flat.parking": 1
        }
    },
    {
        "id": "3143",
        "name": "Abai Joly",
        "details": {
            "map.lat": 51.16406502347,
            "map.lon": 71.393006494709,
            "map.zoom": 17,
            "map.street": "Ермек Серкебаев",
            "map.house_num": "22",
            "map.corner_street": "",
            "house.year": 2024,
            "flat.building": 3,
            "ceiling": 3,
            "flat.parking": 1,
            "house.floor_num": 9
        }
    },
    {
        "id": "3729",
        "name": "Abat",
        "details": {
            "map.lat": 51.10182286931,
            "map.lon": 71.442136694277,
            "map.zoom": 12,
            "map.street": "ул. Жошы хан, 12/3",
            "map.house_num": "",
            "map.corner_street": "",
            "house.year": 2026,
            "flat.building": 1,
            "ceiling": 3,
            "flat.parking": 1
        }
    },
    {
        "id": "1098",
        "name": "Absolute",
        "details": {
            "map.lat": 51.142165591603,
            "map.lon": 71.370731986664,
            "map.zoom": 16,
            "map.street": "Ильяс Омаров",
            "map.house_num": "27",
            "map.corner_street": "",
            "house.year": 2017,
            "flat.building": 3,
            "ceiling": 2.8,
            "flat.parking": 1,
            "house.floor_num": 9
        }
    },
    {
        "id": "2302",
        "name": "Abu Dhabi Plaza",
        "details": {
            "map.lat": 51.121857931822,
            "map.lon": 71.427900917441,
            "map.zoom": 15,
            "map.street": "Сыганак",
            "map.house_num": "14/2",
            "map.corner_street": "",
            "house.year": 2020,
            "flat.building": 3,
            "ceiling": 3,
            "flat.parking": 1,
            "house.floor_num": 14
        }
    },
    {
        "id": "1259",
        "name": "Adal",
        "details": {
            "map.lat": 51.09565648105075,
            "map.lon": 71.43811721672536,
            "map.zoom": 16,
            "map.street": "Жошы хан",
            "map.house_num": "6",
            "map.corner_street": "Бухар жырау",
            "house.year": 2020,
            "flat.building": 1,
            "ceiling": 2.7,
            "flat.parking": 1,
            "house.floor_num": 8
        }
    },
    {
        "id": "2303",
        "name": "Adam Armany",
        "details": {
            "map.lat": 51.112736965377,
            "map.lon": 71.510567662481,
            "map.zoom": 17,
            "map.street": "Нажимеденов",
            "map.house_num": "44, 44а",
            "map.corner_street": "",
            "house.year": 2023,
            "flat.building": 1,
            "ceiling": 2.7,
            "flat.parking": 1
        }
    },
    {
        "id": "3380",
        "name": "Adamant Life",
        "details": {
            "map.lat": 51.06859129051,
            "map.lon": 71.418095973178,
            "map.zoom": 16,
            "map.street": "Мангилик Ел",
            "map.house_num": "74",
            "map.corner_street": "",
            "house.year": 2025,
            "flat.building": 3,
            "ceiling": 2.7,
            "flat.parking": 1,
            "house.floor_num": 16
        }
    },
    {
        "id": "2099",
        "name": "Agate",
        "details": {
            "map.lat": 51.125364556453,
            "map.lon": 71.39382310512,
            "map.zoom": 12,
            "map.street": "Толе би",
            "map.house_num": "53",
            "map.corner_street": "",
            "house.year": 2022,
            "flat.building": 3,
            "ceiling": 3,
            "flat.parking": 1,
            "house.floor_num": 10
        }
    },
    {
        "id": "1731",
        "name": "AiSafi",
        "details": {
            "map.lat": 51.136260731414,
            "map.lon": 71.361817273388,
            "map.zoom": 17,
            "map.street": "Чингиза Айтматова",
            "map.house_num": "33",
            "map.corner_street": "",
            "house.year": 2021,
            "flat.building": 3,
            "ceiling": 2.7,
            "flat.parking": 1,
            "house.floor_num": 9
        }
    },
    {
        "id": "1915",
        "name": "Aibar",
        "details": {
            "map.lat": 51.171192292169,
            "map.lon": 71.39664996689,
            "map.zoom": 12,
            "map.street": "​Кумисбекова",
            "map.house_num": "11/1",
            "map.corner_street": "187",
            "house.year": 2022,
            "flat.building": 1,
            "ceiling": 3,
            "flat.parking": 0,
            "house.floor_num": 10
        }
    },
    {
        "id": "2692",
        "name": "Ainabulaq",
        "details": {
            "map.lat": 51.073788643854,
            "map.lon": 71.433144807706,
            "map.zoom": 17,
            "map.street": "Мәңгілік ел",
            "map.house_num": "",
            "map.corner_street": "Хусейн бен Талал",
            "house.year": 2022,
            "flat.building": 3,
            "ceiling": 2.8,
            "flat.parking": 1,
            "house.floor_num": 4
        }
    },
    {
        "id": "3607",
        "name": "Aisafa",
        "details": {
            "map.lat": 51.109303859931,
            "map.lon": 71.509434143231,
            "map.zoom": 15,
            "map.street": "Шамши Калдаякова",
            "map.house_num": "",
            "map.corner_street": "Улы дала",
            "house.year": 2026,
            "flat.building": 1,
            "ceiling": 3,
            "flat.parking": 1,
            "house.floor_num": 9
        }
    },
    {
        "id": "575",
        "name": "Aisar",
        "details": {
            "map.lat": 51.063499269664,
            "map.lon": 71.423041552921,
            "map.zoom": 12,
            "map.street": "Е-321",
            "map.house_num": "6/2",
            "map.corner_street": "",
            "house.year": 2024,
            "flat.building": 3,
            "ceiling": 3,
            "flat.parking": 1,
            "house.floor_num": 9
        }
    },
    {
        "id": "3608",
        "name": "Aitau",
        "details": {
            "map.lat": 51.123888413052,
            "map.lon": 71.360484923846,
            "map.zoom": 16,
            "map.street": "Чингиз Айтматов",
            "map.house_num": "1",
            "map.corner_street": "",
            "house.year": 2026,
            "flat.building": 1,
            "ceiling": 3,
            "flat.parking": 1,
            "house.floor_num": 9
        }
    },
    {
        "id": "1429",
        "name": "Aitys",
        "details": {
            "map.lat": 51.100494166293,
            "map.lon": 71.413398065493,
            "map.zoom": 16,
            "map.street": "Сауран",
            "map.house_num": "34",
            "map.corner_street": "",
            "house.year": 2020,
            "flat.building": 3,
            "ceiling": 2.7,
            "flat.parking": 1,
            "house.floor_num": 16
        }
    },
    {
        "id": "2837",
        "name": "Aiva",
        "details": {
            "map.lat": 51.088226035665,
            "map.lon": 71.481973775183,
            "map.zoom": 0,
            "map.street": "E-669",
            "map.house_num": "13",
            "map.corner_street": "",
            "house.year": 2023,
            "flat.building": 3,
            "ceiling": 2.85,
            "flat.parking": 1,
            "house.floor_num": 9
        }
    },
    {
        "id": "1615",
        "name": "Ak Bars",
        "details": {
            "map.lat": 51.171903426202,
            "map.lon": 71.397378581391,
            "map.zoom": 12,
            "map.street": "Кумисбекова",
            "map.house_num": "11",
            "map.corner_street": "Джангильдина",
            "house.year": 2020,
            "flat.building": 1,
            "ceiling": 3,
            "flat.parking": 0,
            "house.floor_num": 9
        }
    },
    {
        "id": "2240",
        "name": "Ak Bulak Premium",
        "details": {
            "map.lat": 51.143179929787884,
            "map.lon": 71.45609398587287,
            "map.zoom": 17,
            "map.street": "Аскар Токпанов",
            "map.house_num": "22",
            "map.corner_street": "",
            "house.year": 2022,
            "flat.building": 1,
            "ceiling": 3,
            "flat.parking": 0,
            "house.floor_num": 9
        }
    },
    {
        "id": "3580",
        "name": "Akan City",
        "details": {
            "map.lat": 51.169130908453,
            "map.lon": 71.368644931992,
            "map.zoom": 18,
            "map.street": "189",
            "map.house_num": "",
            "map.corner_street": "",
            "house.year": 2026,
            "flat.building": 1,
            "ceiling": 3,
            "flat.parking": 1,
            "house.floor_num": 9
        }
    },
    {
        "id": "2048",
        "name": "Akbulak Comfort",
        "details": {
            "map.lat": 51.141049782876,
            "map.lon": 71.46300082502,
            "map.zoom": 12,
            "map.street": "Тауелсиздик",
            "map.house_num": "31/3",
            "map.corner_street": "",
            "house.year": 2023,
            "flat.building": 3,
            "ceiling": 3,
            "flat.parking": 1,
            "house.floor_num": 16
        }
    },
    {
        "id": "690",
        "name": "Akbulak Hills",
        "details": {
            "map.lat": 51.14348365441,
            "map.lon": 71.454024922168,
            "map.zoom": 18,
            "map.street": "Шарля де Голля",
            "map.house_num": "11",
            "map.corner_street": "",
            "house.year": 2014,
            "flat.building": 3,
            "ceiling": 3,
            "flat.parking": 1,
            "house.floor_num": 7
        }
    },
    {
        "id": "1123",
        "name": "Akbulak Life",
        "details": {
            "map.lat": 51.136269454461,
            "map.lon": 71.466376758371,
            "map.zoom": 17,
            "map.street": "пр. Тауелсыздык",
            "map.house_num": "39",
            "map.corner_street": "",
            "house.year": 2019,
            "flat.building": 3,
            "ceiling": null,
            "flat.parking": 0,
            "house.floor_num": 16
        }
    },
    {
        "id": "1892",
        "name": "Akbulak Riviera",
        "details": {
            "map.lat": 51.147870521783,
            "map.lon": 71.442729195011,
            "map.zoom": 16,
            "map.street": "Амман",
            "map.house_num": "21",
            "map.corner_street": "",
            "house.year": 2023,
            "flat.building": 3,
            "ceiling": 3.3,
            "flat.parking": 1
        }
    },
    {
        "id": "468",
        "name": "Akbulak Town",
        "details": {
            "map.lat": 51.135205651399,
            "map.lon": 71.466109278036,
            "map.zoom": 12,
            "map.street": "Момышулы",
            "map.house_num": "43",
            "map.corner_street": "",
            "house.year": 2011,
            "flat.building": 1,
            "ceiling": 2.7,
            "flat.parking": 1,
            "house.floor_num": 9
        }
    },
    {
        "id": "3604",
        "name": "Akjol",
        "details": {
            "map.lat": 51.050297909819,
            "map.lon": 71.435591951099,
            "map.zoom": 16,
            "map.street": "Аль-Фараби",
            "map.house_num": "76",
            "map.corner_street": "",
            "house.year": 2024,
            "flat.building": 1,
            "ceiling": 2.7,
            "flat.parking": 1,
            "house.floor_num": 5
        }
    },
    {
        "id": "2400",
        "name": "Ala Tau Comfort",
        "details": {
            "map.lat": 51.116620915466,
            "map.lon": 71.515306234251,
            "map.zoom": 17,
            "map.street": "Байтурсынова",
            "map.house_num": "20/2",
            "map.corner_street": "",
            "house.year": 2024,
            "flat.building": 1,
            "ceiling": 3,
            "flat.parking": 1,
            "house.floor_num": 10
        }
    },
    {
        "id": "3809",
        "name": "Alakol",
        "details": {
            "map.lat": 51.167849633124,
            "map.lon": 71.374232768985,
            "map.zoom": 16,
            "map.street": "Улица Ермек Серкебаев, 49",
            "map.house_num": "",
            "map.corner_street": "",
            "house.year": 2026,
            "flat.building": 3,
            "ceiling": 3,
            "flat.parking": 0,
            "house.floor_num": 12
        }
    },
    {
        "id": "1153",
        "name": "Alan",
        "details": {
            "map.lat": 51.094586049375,
            "map.lon": 71.439032886494,
            "map.zoom": 12,
            "map.street": "Улы Дала",
            "map.house_num": "44",
            "map.corner_street": "",
            "house.year": 2019,
            "flat.building": 3,
            "ceiling": null,
            "flat.parking": 0,
            "house.floor_num": 9
        }
    },
    {
        "id": "928",
        "name": "Alanda",
        "details": {
            "map.lat": 51.13873859571,
            "map.lon": 71.463730757362,
            "map.zoom": 16,
            "map.street": "Тауелсиздик",
            "map.house_num": "33",
            "map.corner_street": "",
            "house.year": 2016,
            "flat.building": 3,
            "ceiling": 2.7,
            "flat.parking": 1,
            "house.floor_num": 15
        }
    },
    {
        "id": "1919",
        "name": "Alatau City",
        "details": {
            "map.lat": 51.14661644248,
            "map.lon": 71.354784053911,
            "map.zoom": 10,
            "map.street": "Е-435",
            "map.house_num": "4",
            "map.corner_street": "",
            "house.year": 2021,
            "flat.building": 3,
            "ceiling": 2.7,
            "flat.parking": 1,
            "house.floor_num": 9
        }
    },
    {
        "id": "3736",
        "name": "Alatau Eco Park",
        "details": {
            "map.lat": 51.14709303593,
            "map.lon": 71.363872068863,
            "map.zoom": 16,
            "map.street": "Е 430 улица",
            "map.house_num": "2/4",
            "map.corner_street": "",
            "house.year": 2025,
            "flat.building": 3,
            "ceiling": 3,
            "flat.parking": 1,
            "house.floor_num": 9
        }
    },
    {
        "id": "2669",
        "name": "Alatau Park",
        "details": {
            "map.lat": 51.154624975234,
            "map.lon": 71.363888737029,
            "map.zoom": 12,
            "map.street": "Ч.Айтматова",
            "map.house_num": "",
            "map.corner_street": "Бейсековой",
            "house.year": 2023,
            "flat.building": 1,
            "ceiling": 3,
            "flat.parking": 0,
            "house.floor_num": 12
        }
    },
    {
        "id": "1666",
        "name": "Alau",
        "details": {
            "map.lat": 51.100621378414,
            "map.lon": 71.405955793683,
            "map.zoom": 12,
            "map.street": "Кабанбай батыр",
            "map.house_num": "49а",
            "map.corner_street": "",
            "house.year": 2020,
            "flat.building": 3,
            "ceiling": 3,
            "flat.parking": 1
        }
    },
    {
        "id": "2623",
        "name": "Alma Park",
        "details": {
            "map.lat": 51.115855376306,
            "map.lon": 71.404309784982,
            "map.zoom": 16,
            "map.street": "Туран",
            "map.house_num": "40/1",
            "map.corner_street": "",
            "house.year": 2022,
            "flat.building": 1,
            "ceiling": 3,
            "flat.parking": 0,
            "house.floor_num": 10
        }
    },
    {
        "id": "1801",
        "name": "Alpamys",
        "details": {
            "map.lat": 51.101004509663,
            "map.lon": 71.40182605911,
            "map.zoom": 12,
            "map.street": "Улы Дала",
            "map.house_num": "31, 31/1, 33, 33/1",
            "map.corner_street": "",
            "house.year": 2020,
            "flat.building": 1,
            "ceiling": 3,
            "flat.parking": 1
        }
    },
    {
        "id": "3018",
        "name": "Altyn Besik",
        "details": {
            "map.lat": 51.102589911568,
            "map.lon": 71.382900284835,
            "map.zoom": 15,
            "map.street": "Казыбек би",
            "map.house_num": "35",
            "map.corner_street": "",
            "house.year": 2024,
            "flat.building": 3,
            "ceiling": 2.8,
            "flat.parking": 1
        }
    },
    {
        "id": "2116",
        "name": "Altyn Dala",
        "details": {
            "map.lat": 51.139237277845,
            "map.lon": 71.3782584793,
            "map.zoom": 16,
            "map.street": "Кайым Мухамедханов",
            "map.house_num": "12/3",
            "map.corner_street": "",
            "house.year": 2022,
            "flat.building": 1,
            "ceiling": 3,
            "flat.parking": 0,
            "house.floor_num": 16
        }
    },
    {
        "id": "3771",
        "name": "Altyn Emel",
        "details": {
            "map.lat": 51.169340994006,
            "map.lon": 71.374874689817,
            "map.zoom": 15,
            "map.street": "Улица Чингиз Айтматов, 79/1",
            "map.house_num": "",
            "map.corner_street": "",
            "house.year": 2026,
            "flat.building": 3,
            "ceiling": 3,
            "flat.parking": 0,
            "house.floor_num": 10
        }
    },
    {
        "id": "2266",
        "name": "Altyn Sapa",
        "details": {
            "map.lat": 51.140746918099,
            "map.lon": 71.379273657798,
            "map.zoom": 12,
            "map.street": "Кайым Мухамедханов",
            "map.house_num": "12",
            "map.corner_street": "",
            "house.year": 2020,
            "flat.building": 1,
            "ceiling": 3,
            "flat.parking": 1,
            "house.floor_num": 10
        }
    },
    {
        "id": "2000",
        "name": "Altyn Tau",
        "details": {
            "map.lat": 51.164226307682,
            "map.lon": 71.400863290287,
            "map.zoom": 12,
            "map.street": "Абая",
            "map.house_num": "",
            "map.corner_street": "Кумисбекова",
            "house.year": 2021,
            "flat.building": 1,
            "ceiling": 3,
            "flat.parking": 1,
            "house.floor_num": 9
        }
    },
    {
        "id": "2389",
        "name": "Amal'",
        "details": {
            "map.lat": 51.098483664823,
            "map.lon": 71.436170339475,
            "map.zoom": 12,
            "map.street": "Бухар Жырау",
            "map.house_num": "",
            "map.corner_street": "",
            "house.year": 2024,
            "flat.building": 3,
            "ceiling": 3,
            "flat.parking": 1,
            "house.floor_num": 10
        }
    },
    {
        "id": "1609",
        "name": "Amsterdam",
        "details": {
            "map.lat": 51.131696424423,
            "map.lon": 71.381808676943,
            "map.zoom": 16,
            "map.street": "Анет баба",
            "map.house_num": "3",
            "map.corner_street": "",
            "house.year": 2020,
            "flat.building": 2,
            "ceiling": 3,
            "flat.parking": 1,
            "house.floor_num": 10
        }
    },
    {
        "id": "2260",
        "name": "Anar",
        "details": {
            "map.lat": 51.108252398071,
            "map.lon": 71.439041293359,
            "map.zoom": 16,
            "map.street": "Аккум",
            "map.house_num": "22",
            "map.corner_street": "",
            "house.year": 2023,
            "flat.building": 1,
            "ceiling": 3,
            "flat.parking": 0,
            "house.floor_num": 10
        }
    },
    {
        "id": "1845",
        "name": "Angleterre",
        "details": {
            "map.lat": 51.07820008307,
            "map.lon": 71.42235633285,
            "map.zoom": 12,
            "map.street": "Хусейн Бен Талал",
            "map.house_num": "28",
            "map.corner_street": "",
            "house.year": 2021,
            "flat.building": 3,
            "ceiling": 3,
            "flat.parking": 1
        }
    },
    {
        "id": "2081",
        "name": "Anisa",
        "details": {
            "map.lat": 51.142197856634,
            "map.lon": 71.378878969775,
            "map.zoom": 15,
            "map.street": "Кайым Мухамедханов",
            "map.house_num": "23а",
            "map.corner_street": "",
            "house.year": 2020,
            "flat.building": 3,
            "ceiling": 2.7,
            "flat.parking": 1
        }
    },
    {
        "id": "3477",
        "name": "Ansau",
        "details": {
            "map.lat": 51.109724381694,
            "map.lon": 71.528748511365,
            "map.zoom": 11,
            "map.street": "Мухамеджан Тынышбайулы",
            "map.house_num": "10",
            "map.corner_street": "",
            "house.year": 2025,
            "flat.building": 1,
            "ceiling": 3,
            "flat.parking": 1,
            "house.floor_num": 9
        }
    },
    {
        "id": "1527",
        "name": "Apple City",
        "details": {
            "map.lat": 51.087586011104,
            "map.lon": 71.42876353873,
            "map.zoom": 12,
            "map.street": "Бокейхана",
            "map.house_num": "25",
            "map.corner_street": "",
            "house.year": 2020,
            "flat.building": 3,
            "ceiling": 3,
            "flat.parking": 1
        }
    },
    {
        "id": "3648",
        "name": "Aq bastay",
        "details": {
            "map.lat": 51.15073114641069,
            "map.lon": 71.43600862893314,
            "map.zoom": 17,
            "map.street": "Жумабека Ташенова",
            "map.house_num": "10/2",
            "map.corner_street": "",
            "house.year": 2020,
            "flat.building": 1,
            "ceiling": 3,
            "flat.parking": 1,
            "house.floor_num": 5
        }
    },
    {
        "id": "897",
        "name": "Aq-Didar",
        "details": {
            "map.lat": 51.117176540572,
            "map.lon": 71.389954090118,
            "map.zoom": 12,
            "map.street": "Казыбек би",
            "map.house_num": "11, 11Б, 15, 13, 11а, 11/1, 13а, 11/2",
            "map.corner_street": "",
            "house.year": 2018,
            "flat.building": 3,
            "ceiling": 2.72,
            "flat.parking": 0
        }
    },
    {
        "id": "2052",
        "name": "Aq-Jol",
        "details": {
            "map.lat": 51.049922238728,
            "map.lon": 71.435744762421,
            "map.zoom": 12,
            "map.street": "Кабанбай батыра",
            "map.house_num": "107",
            "map.corner_street": "",
            "house.year": 2024,
            "flat.building": 1,
            "ceiling": 2.8,
            "flat.parking": 0,
            "house.floor_num": 6
        }
    },
    {
        "id": "723",
        "name": "Aq-Tay",
        "details": {
            "map.lat": 51.099105072306,
            "map.lon": 71.429398610877,
            "map.zoom": 12,
            "map.street": "Мәңгілік Ел",
            "map.house_num": "42а",
            "map.corner_street": "",
            "house.year": 2021,
            "flat.building": 1,
            "ceiling": 3,
            "flat.parking": 0,
            "house.floor_num": 8
        }
    },
    {
        "id": "3507",
        "name": "Aqyn Abai",
        "details": {
            "map.lat": 51.165188827631,
            "map.lon": 71.46416749003,
            "map.zoom": 12,
            "map.street": "Абая",
            "map.house_num": "86",
            "map.corner_street": "",
            "house.year": 2025,
            "flat.building": 1,
            "ceiling": 3,
            "flat.parking": 0,
            "house.floor_num": 9
        }
    },
    {
        "id": "2283",
        "name": "Aqzam",
        "details": {
            "map.lat": 51.078161044251,
            "map.lon": 71.424340197635,
            "map.zoom": 16,
            "map.street": "Мангилик Ел",
            "map.house_num": "",
            "map.corner_street": "Хусейн бен Талал",
            "house.year": 2024,
            "flat.building": 3,
            "ceiling": 3,
            "flat.parking": 1
        }
    },
    {
        "id": "1701",
        "name": "Arai Apartments",
        "details": {
            "map.lat": 51.16193131907,
            "map.lon": 71.403593491025,
            "map.zoom": 12,
            "map.street": "Кенесары",
            "map.house_num": "стр. 6",
            "map.corner_street": "",
            "house.year": 2021,
            "flat.building": 1,
            "ceiling": 3,
            "flat.parking": 1
        }
    },
    {
        "id": "3044",
        "name": "Arai Towers",
        "details": {
            "map.lat": 51.085999154374,
            "map.lon": 71.424452716966,
            "map.zoom": 17,
            "map.street": "Мангилик Ел",
            "map.house_num": "62",
            "map.corner_street": "",
            "house.year": 2025,
            "flat.building": 3,
            "ceiling": 3,
            "flat.parking": 1
        }
    },
    {
        "id": "2524",
        "name": "Arena Garden",
        "details": {
            "map.lat": 51.11025768977,
            "map.lon": 71.391406059047,
            "map.zoom": 16,
            "map.street": "Туран",
            "map.house_num": "55/14",
            "map.corner_street": "",
            "house.year": 2024,
            "flat.building": 3,
            "ceiling": 2.7,
            "flat.parking": 0
        }
    },
    {
        "id": "3367",
        "name": "Arena Style",
        "details": {
            "map.lat": 51.105840027492,
            "map.lon": 71.389565064875,
            "map.zoom": 17,
            "map.street": "Бухар жырау",
            "map.house_num": "57/6",
            "map.corner_street": "",
            "house.year": 2026,
            "flat.building": 3,
            "ceiling": 3,
            "flat.parking": 1,
            "house.floor_num": 9
        }
    },
    {
        "id": "2526",
        "name": "Arena Towers",
        "details": {
            "map.lat": 51.110890852301,
            "map.lon": 71.39771461465,
            "map.zoom": 16,
            "map.street": "Туран",
            "map.house_num": "55/12",
            "map.corner_street": "",
            "house.year": 2024,
            "flat.building": 3,
            "ceiling": 3,
            "flat.parking": 1
        }
    },
    {
        "id": "3455",
        "name": "Arena Towers 2",
        "details": {
            "map.lat": 51.107099886526825,
            "map.lon": 71.39626968832678,
            "map.zoom": 16,
            "map.street": "Туран",
            "map.house_num": "57/1",
            "map.corner_street": "",
            "house.year": 2024,
            "flat.building": 3,
            "ceiling": 3,
            "flat.parking": 1
        }
    },
    {
        "id": "3299",
        "name": "Arena Unity",
        "details": {
            "map.lat": 51.10730763511,
            "map.lon": 71.393738019211,
            "map.zoom": 12,
            "map.street": "Туран",
            "map.house_num": "57/5",
            "map.corner_street": "",
            "house.year": 2025,
            "flat.building": 3,
            "ceiling": 3,
            "flat.parking": 1,
            "house.floor_num": 9
        }
    },
    {
        "id": "3760",
        "name": "Arena Unity 2",
        "details": {
            "map.lat": 51.1075125869654,
            "map.lon": 71.39234983835098,
            "map.zoom": 16,
            "map.street": "Туран",
            "map.house_num": "57/6",
            "map.corner_street": "",
            "house.year": 2026,
            "flat.building": 3,
            "ceiling": 3,
            "flat.parking": 1,
            "house.floor_num": 9
        }
    },
    {
        "id": "3480",
        "name": "Arena Vista",
        "details": {
            "map.lat": 51.108878229703,
            "map.lon": 71.39119285989,
            "map.zoom": 14,
            "map.street": "Туран",
            "map.house_num": "57д",
            "map.corner_street": "",
            "house.year": 2026,
            "flat.building": 3,
            "ceiling": 3,
            "flat.parking": 1
        }
    },
    {
        "id": "2442",
        "name": "Arena city",
        "details": {
            "map.lat": 51.105230812822,
            "map.lon": 71.393402905073,
            "map.zoom": 15,
            "map.street": "Туран",
            "map.house_num": "",
            "map.corner_street": "Бухар Жырау",
            "house.year": 2024,
            "flat.building": 3,
            "ceiling": 2.7,
            "flat.parking": 0,
            "house.floor_num": 9
        }
    },
    {
        "id": "3745",
        "name": "Arena city 2",
        "details": {
            "map.lat": 51.10537168315169,
            "map.lon": 71.3922620205059,
            "map.zoom": 16,
            "map.street": "Туран",
            "map.house_num": "57/5",
            "map.corner_street": "",
            "house.year": 2024,
            "flat.building": 3,
            "ceiling": 2.7,
            "flat.parking": 0,
            "house.floor_num": 9
        }
    },
    {
        "id": "3319",
        "name": "Arena. Lite",
        "details": {
            "map.lat": 51.107774404066,
            "map.lon": 71.389667132394,
            "map.zoom": 18,
            "map.street": "Туран",
            "map.house_num": "57/7",
            "map.corner_street": "",
            "house.year": 2025,
            "flat.building": 3,
            "ceiling": 2.65,
            "flat.parking": 1
        }
    },
    {
        "id": "1436",
        "name": "Argento",
        "details": {
            "map.lat": 51.111798368723,
            "map.lon": 71.421672763587,
            "map.zoom": 16,
            "map.street": "Акмешит",
            "map.house_num": "17",
            "map.corner_street": "",
            "house.year": 2020,
            "flat.building": 3,
            "ceiling": 3,
            "flat.parking": 1
        }
    },
    {
        "id": "2396",
        "name": "Argymaq",
        "details": {
            "map.lat": 51.135261575031,
            "map.lon": 71.46907567967,
            "map.zoom": 18,
            "map.street": "Тауелсиздик",
            "map.house_num": "",
            "map.corner_street": "Б. Момышулы",
            "house.year": 2025,
            "flat.building": 3,
            "ceiling": 3,
            "flat.parking": 1
        }
    },
    {
        "id": "2214",
        "name": "Aria",
        "details": {
            "map.lat": 51.102427036084,
            "map.lon": 71.432115586168,
            "map.zoom": 12,
            "map.street": "Бокейханова",
            "map.house_num": "",
            "map.corner_street": "",
            "house.year": 2022,
            "flat.building": 3,
            "ceiling": 3,
            "flat.parking": 1,
            "house.floor_num": 9
        }
    },
    {
        "id": "683",
        "name": "Arman Deluxe",
        "details": {
            "map.lat": 51.112696992981,
            "map.lon": 71.417804237717,
            "map.zoom": 12,
            "map.street": "Сауран",
            "map.house_num": "18",
            "map.corner_street": "",
            "house.year": 2015,
            "flat.building": 3,
            "ceiling": 3,
            "flat.parking": 1,
            "house.floor_num": 7
        }
    },
    {
        "id": "1443",
        "name": "ArmanTau Comfort",
        "details": {
            "map.lat": 51.114478048053,
            "map.lon": 71.514022350311,
            "map.zoom": 15,
            "map.street": "Ахмета Байтурсынова",
            "map.house_num": "41/1",
            "map.corner_street": "",
            "house.year": 2020,
            "flat.building": 3,
            "ceiling": 3,
            "flat.parking": 0,
            "house.floor_num": 8
        }
    },
    {
        "id": "2058",
        "name": "ArmanTau Comfort II",
        "details": {
            "map.lat": 51.117086719118,
            "map.lon": 71.515575249138,
            "map.zoom": 10,
            "map.street": "Байтурсынова",
            "map.house_num": "20",
            "map.corner_street": "",
            "house.year": 2020,
            "flat.building": 3,
            "ceiling": 3,
            "flat.parking": 1,
            "house.floor_num": 18
        }
    },
    {
        "id": "730",
        "name": "Arnau Premium",
        "details": {
            "map.lat": 51.114433695109,
            "map.lon": 71.418646249377,
            "map.zoom": 12,
            "map.street": "Керей и  Жанибек хандар",
            "map.house_num": "14/2",
            "map.corner_street": "",
            "house.year": 2016,
            "flat.building": 3,
            "ceiling": 3.15,
            "flat.parking": 1,
            "house.floor_num": 15
        }
    },
    {
        "id": "798",
        "name": "Art House",
        "details": {
            "map.lat": 51.116458452582,
            "map.lon": 71.42911135774,
            "map.zoom": 12,
            "map.street": "Алматы",
            "map.house_num": "11",
            "map.corner_street": "Туркестан",
            "house.year": 2016,
            "flat.building": 3,
            "ceiling": 2.7,
            "flat.parking": 1,
            "house.floor_num": 10
        }
    },
    {
        "id": "2402",
        "name": "Arti7",
        "details": {
            "map.lat": 51.072891924239,
            "map.lon": 71.425185799544,
            "map.zoom": 12,
            "map.street": "Е 496",
            "map.house_num": "8",
            "map.corner_street": "",
            "house.year": 2025,
            "flat.building": 3,
            "ceiling": 3,
            "flat.parking": 1,
            "house.floor_num": 9
        }
    },
    {
        "id": "3263",
        "name": "AruPark",
        "details": {
            "map.lat": 51.056317811178,
            "map.lon": 71.424622535487,
            "map.zoom": 16,
            "map.street": "Е 652",
            "map.house_num": "18",
            "map.corner_street": "",
            "house.year": 2024,
            "flat.building": 3,
            "ceiling": 2.75,
            "flat.parking": 1,
            "house.floor_num": 9
        }
    },
    {
        "id": "153",
        "name": "Aruna City",
        "details": {
            "map.lat": 51.139804072534,
            "map.lon": 71.375094663289,
            "map.zoom": 9,
            "map.street": "Култегин",
            "map.house_num": "17",
            "map.corner_street": "",
            "house.year": 2022,
            "flat.building": 3,
            "ceiling": 2.9,
            "flat.parking": 1
        }
    },
    {
        "id": "2706",
        "name": "Aspan Royal Park",
        "details": {
            "map.lat": 51.106365942162,
            "map.lon": 71.365814124733,
            "map.zoom": 15,
            "map.street": "Улы Дала",
            "map.house_num": "",
            "map.corner_street": "Ч. Айтматова",
            "house.year": 2025,
            "flat.building": 1,
            "ceiling": 8,
            "flat.parking": 1
        }
    },
    {
        "id": "1541",
        "name": "Asqat",
        "details": {
            "map.lat": 51.116836945898,
            "map.lon": 71.52175571508,
            "map.zoom": 0,
            "map.street": "А.Байтурсынова",
            "map.house_num": "51",
            "map.corner_street": "",
            "house.year": 2020,
            "flat.building": 3,
            "ceiling": 2.7,
            "flat.parking": 1,
            "house.floor_num": 7
        }
    },
    {
        "id": "1186",
        "name": "Assyl Tau",
        "details": {
            "map.lat": 51.117651398604,
            "map.lon": 71.429340438989,
            "map.zoom": 13,
            "map.street": "Туркестан",
            "map.house_num": "4Б",
            "map.corner_street": "",
            "house.year": 2021,
            "flat.building": 3,
            "ceiling": 2.7,
            "flat.parking": 1
        }
    },
    {
        "id": "1905",
        "name": "Asyl Arman",
        "details": {
            "map.lat": 51.087996819288,
            "map.lon": 71.480245963068,
            "map.zoom": 12,
            "map.street": "Улы Дала",
            "map.house_num": "",
            "map.corner_street": "",
            "house.year": 2022,
            "flat.building": 3,
            "ceiling": 2.7,
            "flat.parking": 1
        }
    },
    {
        "id": "2183",
        "name": "Asyl Besterek",
        "details": {
            "map.lat": 51.081600675127,
            "map.lon": 71.441531181281,
            "map.zoom": 12,
            "map.street": "Фариза Онгарсынова",
            "map.house_num": "8/2",
            "map.corner_street": "",
            "house.year": 2024,
            "flat.building": 3,
            "ceiling": 3,
            "flat.parking": 1,
            "house.floor_num": 9
        }
    },
    {
        "id": "3393",
        "name": "Asyl Bulak",
        "details": {
            "map.lat": 51.152008954214,
            "map.lon": 71.37274675489,
            "map.zoom": 17,
            "map.street": "Чингиза Айтматова",
            "map.house_num": "46/1",
            "map.corner_street": "",
            "house.year": 2025,
            "flat.building": 3,
            "ceiling": 3,
            "flat.parking": 1,
            "house.floor_num": 9
        }
    },
    {
        "id": "713",
        "name": "Asyl Park",
        "details": {
            "map.lat": 51.108240515034,
            "map.lon": 71.428756896963,
            "map.zoom": 12,
            "map.street": "Мәңгілік Ел",
            "map.house_num": "29/1",
            "map.corner_street": "",
            "house.year": 2016,
            "flat.building": 3,
            "ceiling": 3,
            "flat.parking": 1,
            "house.floor_num": 8
        }
    },
    {
        "id": "2215",
        "name": "Asylym",
        "details": {
            "map.lat": 51.107683062218,
            "map.lon": 71.432598222435,
            "map.zoom": 17,
            "map.street": "Мангилик ел",
            "map.house_num": "30",
            "map.corner_street": "",
            "house.year": 2023,
            "flat.building": 3,
            "ceiling": 3,
            "flat.parking": 1,
            "house.floor_num": 8
        }
    },
    {
        "id": "2637",
        "name": "Asylym Park 1",
        "details": {
            "map.lat": 51.104731971534,
            "map.lon": 71.43350014641,
            "map.zoom": 17,
            "map.street": "Алихан Бокейхан",
            "map.house_num": "16/3, 16/2",
            "map.corner_street": "",
            "house.year": 2024,
            "flat.building": 3,
            "ceiling": 3,
            "flat.parking": 1,
            "house.floor_num": 9
        }
    },
    {
        "id": "2540",
        "name": "Asylym Park 2",
        "details": {
            "map.lat": 51.105719601828,
            "map.lon": 71.433701096131,
            "map.zoom": 12,
            "map.street": "Бокейхана",
            "map.house_num": "",
            "map.corner_street": "",
            "house.year": 2023,
            "flat.building": 1,
            "ceiling": 3,
            "flat.parking": 1,
            "house.floor_num": 9
        }
    },
    {
        "id": "1341",
        "name": "Asylym Prime",
        "details": {
            "map.lat": 51.107706147158,
            "map.lon": 71.435079570001,
            "map.zoom": 16,
            "map.street": "Орынбор",
            "map.house_num": "",
            "map.corner_street": "Алихана Бокейханова",
            "house.year": 2023,
            "flat.building": 1,
            "ceiling": 3,
            "flat.parking": 1,
            "house.floor_num": 9
        }
    },
    {
        "id": "2672",
        "name": "Atamura",
        "details": {
            "map.lat": 51.107974191142,
            "map.lon": 71.5311741818,
            "map.zoom": 12,
            "map.street": "Шаймерденова",
            "map.house_num": "4/3",
            "map.corner_street": "",
            "house.year": 2023,
            "flat.building": 3,
            "ceiling": 2.7,
            "flat.parking": 0
        }
    },
    {
        "id": "1556",
        "name": "Athletic",
        "details": {
            "map.lat": 51.10178185026,
            "map.lon": 71.391973509906,
            "map.zoom": 18,
            "map.street": "Туран",
            "map.house_num": "",
            "map.corner_street": "Улы Дала",
            "house.year": 2021,
            "flat.building": 3,
            "ceiling": 3,
            "flat.parking": 1,
            "house.floor_num": 12
        }
    },
    {
        "id": "2308",
        "name": "Athletic City",
        "details": {
            "map.lat": 51.100800197776,
            "map.lon": 71.393194202537,
            "map.zoom": 12,
            "map.street": "Улы Дала",
            "map.house_num": "25, 27, 29, 29/1",
            "map.corner_street": "Толе Би",
            "house.year": 2023,
            "flat.building": 3,
            "ceiling": 3,
            "flat.parking": 1
        }
    },
    {
        "id": "1531",
        "name": "Atlant",
        "details": {
            "map.lat": 51.135389019768,
            "map.lon": 71.418658300577,
            "map.zoom": 1,
            "map.street": "Сарайшык",
            "map.house_num": "2",
            "map.corner_street": "Кунаева",
            "house.year": 2021,
            "flat.building": 3,
            "ceiling": 3,
            "flat.parking": 1
        }
    },
    {
        "id": "1521",
        "name": "Atlant Unique",
        "details": {
            "map.lat": 51.133775423971,
            "map.lon": 71.418208542627,
            "map.zoom": 12,
            "map.street": "Динмухамед Конаев",
            "map.house_num": "3",
            "map.corner_street": "",
            "house.year": 2025,
            "flat.building": 3,
            "ceiling": 3.3,
            "flat.parking": 1
        }
    },
    {
        "id": "3532",
        "name": "Attila",
        "details": {
            "map.lat": 51.13733330213487,
            "map.lon": 71.3758090443756,
            "map.zoom": 17,
            "map.street": "Культегин",
            "map.house_num": "участок №16",
            "map.corner_street": "",
            "house.year": 2026,
            "flat.building": 3,
            "ceiling": 2.9,
            "flat.parking": 1
        }
    },
    {
        "id": "3376",
        "name": "Auez",
        "details": {
            "map.lat": 51.113877909608,
            "map.lon": 71.481329798644,
            "map.zoom": 18,
            "map.street": "Сагадат Нурмагамбетов",
            "map.house_num": "17",
            "map.corner_street": "",
            "house.year": 2026,
            "flat.building": 3,
            "ceiling": 3,
            "flat.parking": 1
        }
    },
    {
        "id": "3457",
        "name": "Auez Park",
        "details": {
            "map.lat": 51.107536216349,
            "map.lon": 71.391518954497,
            "map.zoom": 18,
            "map.street": "Туран",
            "map.house_num": "57/6",
            "map.corner_street": "",
            "house.year": 2026,
            "flat.building": 3,
            "ceiling": 3,
            "flat.parking": 1,
            "house.floor_num": 9
        }
    },
    {
        "id": "2620",
        "name": "Aurora",
        "details": {
            "map.lat": 51.137898033772,
            "map.lon": 71.38008097533,
            "map.zoom": 17,
            "map.street": "Кайыма Мухамедханова",
            "map.house_num": "",
            "map.corner_street": "Е155",
            "house.year": 2022,
            "flat.building": 3,
            "ceiling": 2.75,
            "flat.parking": 1,
            "house.floor_num": 7
        }
    },
    {
        "id": "1938",
        "name": "Austria",
        "details": {
            "map.lat": 51.113695167639,
            "map.lon": 71.462975472319,
            "map.zoom": 12,
            "map.street": "9",
            "map.house_num": "",
            "map.corner_street": "",
            "house.year": 2022,
            "flat.building": 3,
            "ceiling": 3,
            "flat.parking": 1
        }
    },
    {
        "id": "1035",
        "name": "Avenue 5",
        "details": {
            "map.lat": 51.143305937572,
            "map.lon": 71.418598522972,
            "map.zoom": 12,
            "map.street": "Кабанбай батыр",
            "map.house_num": "5/3",
            "map.corner_street": "",
            "house.year": 2019,
            "flat.building": 3,
            "ceiling": 3,
            "flat.parking": 1
        }
    },
    {
        "id": "3605",
        "name": "Ayala",
        "details": {
            "map.lat": 51.127150698348,
            "map.lon": 71.369950124067,
            "map.zoom": 12,
            "map.street": "Таттимбета",
            "map.house_num": "",
            "map.corner_street": "Е-15",
            "house.year": 2026,
            "flat.building": 1,
            "ceiling": 3,
            "flat.parking": 1
        }
    },
    {
        "id": "2914",
        "name": "Azure",
        "details": {
            "map.lat": 51.112629287261,
            "map.lon": 71.465322954912,
            "map.zoom": 16,
            "map.street": "Тауелсиздик",
            "map.house_num": "60",
            "map.corner_street": "",
            "house.year": 2025,
            "flat.building": 3,
            "ceiling": 3,
            "flat.parking": 1,
            "house.floor_num": 5
        }
    },
    {
        "id": "3427",
        "name": "BAIMURA",
        "details": {
            "map.lat": 51.126174456721,
            "map.lon": 71.377823580908,
            "map.zoom": 18,
            "map.street": "Е-34",
            "map.house_num": "4",
            "map.corner_street": "",
            "house.year": 2025,
            "flat.building": 3,
            "ceiling": 3,
            "flat.parking": 1,
            "house.floor_num": 9
        }
    },
    {
        "id": "3665",
        "name": "BAIMURA 2",
        "details": {
            "map.lat": 51.126487247668,
            "map.lon": 71.376519130999,
            "map.zoom": 18,
            "map.street": "Е-15",
            "map.house_num": "13, 13/1",
            "map.corner_street": "",
            "house.year": 2025,
            "flat.building": 3,
            "ceiling": 3,
            "flat.parking": 1,
            "house.floor_num": 9
        }
    },
    {
        "id": "752",
        "name": "BARCELONA",
        "details": {
            "map.lat": 51.110935035917,
            "map.lon": 71.461991697806,
            "map.zoom": 18,
            "map.street": "Тауелсиздик",
            "map.house_num": "21-25",
            "map.corner_street": "",
            "house.year": 2018,
            "flat.building": 3,
            "ceiling": 3,
            "flat.parking": 0,
            "house.floor_num": 7
        }
    },
    {
        "id": "1943",
        "name": "BI Village Deluxe",
        "details": {
            "map.lat": 51.089176860674,
            "map.lon": 71.431289608542,
            "map.zoom": 15,
            "map.street": "Турара–Рыскулова",
            "map.house_num": "",
            "map.corner_street": "",
            "house.year": 2021,
            "flat.building": 1,
            "ceiling": 3.3,
            "flat.parking": 1,
            "house.floor_num": 2
        }
    },
    {
        "id": "3714",
        "name": "BILIM",
        "details": {
            "map.lat": 51.112125981775,
            "map.lon": 71.50903409702,
            "map.zoom": 15,
            "map.street": "Байтурсынова",
            "map.house_num": "",
            "map.corner_street": "",
            "house.year": 2024,
            "flat.building": 1,
            "ceiling": 3,
            "flat.parking": 0,
            "house.floor_num": 12
        }
    },
    {
        "id": "3715",
        "name": "BILIM II",
        "details": {
            "map.lat": 51.115200655977,
            "map.lon": 71.522938732894,
            "map.zoom": 15,
            "map.street": "ул. А. Байтурсынова, вблизи Аллеи Мынжылдык",
            "map.house_num": "",
            "map.corner_street": "",
            "house.year": 2025,
            "flat.building": 1,
            "ceiling": 3,
            "flat.parking": 0,
            "house.floor_num": 12
        }
    },
    {
        "id": "3015",
        "name": "BUQAR JYRAU EXCLUSIVE",
        "details": {
            "map.lat": 51.104241090561,
            "map.lon": 71.401095279242,
            "map.zoom": 15,
            "map.street": "Туран",
            "map.house_num": "52/5, 52/6, 52/7",
            "map.corner_street": "",
            "house.year": 2024,
            "flat.building": 3,
            "ceiling": 3,
            "flat.parking": 1
        }
    },
    {
        "id": "3281",
        "name": "BUQAR JYRAU EXCLUSIVE 2",
        "details": {
            "map.lat": 51.104566046182,
            "map.lon": 71.399554480031,
            "map.zoom": 13,
            "map.street": "Туран",
            "map.house_num": "52/2, 52/3",
            "map.corner_street": "",
            "house.year": 2024,
            "flat.building": 3,
            "ceiling": 3,
            "flat.parking": 1
        }
    },
    {
        "id": "2922",
        "name": "BURABAY-2",
        "details": {
            "map.lat": 51.107214087349,
            "map.lon": 71.535006136982,
            "map.zoom": 16,
            "map.street": "Шамши Калдаяков",
            "map.house_num": "61",
            "map.corner_street": "",
            "house.year": 2024,
            "flat.building": 1,
            "ceiling": 2.7,
            "flat.parking": 0
        }
    },
    {
        "id": "2002",
        "name": "Bai-Tursyn",
        "details": {
            "map.lat": 51.117786130512,
            "map.lon": 71.508909591561,
            "map.zoom": 0,
            "map.street": "Байтурсынова",
            "map.house_num": "",
            "map.corner_street": "А51",
            "house.year": 2022,
            "flat.building": 3,
            "ceiling": 2.85,
            "flat.parking": 1
        }
    },
    {
        "id": "3664",
        "name": "Baidaulet",
        "details": {
            "map.lat": 51.124310292371,
            "map.lon": 71.379407733809,
            "map.zoom": 16,
            "map.street": "Е-15",
            "map.house_num": "16",
            "map.corner_street": "",
            "house.year": 2025,
            "flat.building": 1,
            "ceiling": 3,
            "flat.parking": 1
        }
    },
    {
        "id": "3692",
        "name": "Baisa",
        "details": {
            "map.lat": 51.121401001955,
            "map.lon": 71.356385189305,
            "map.zoom": 12,
            "map.street": "Ч. Айтматова",
            "map.house_num": "",
            "map.corner_street": "",
            "house.year": 2026,
            "flat.building": 1,
            "ceiling": 3,
            "flat.parking": 1,
            "house.floor_num": 9
        }
    },
    {
        "id": "1003",
        "name": "Baisanat",
        "details": {
            "map.lat": 51.143206853853,
            "map.lon": 71.399005822533,
            "map.zoom": 12,
            "map.street": "Карашаш ана",
            "map.house_num": "16",
            "map.corner_street": "",
            "house.year": 2019,
            "flat.building": 3,
            "ceiling": 3.3,
            "flat.parking": 0,
            "house.floor_num": 6
        }
    },
    {
        "id": "2904",
        "name": "Baitas",
        "details": {
            "map.lat": 51.133778930492,
            "map.lon": 71.469624638503,
            "map.zoom": 18,
            "map.street": "Тауелсиздик",
            "map.house_num": "",
            "map.corner_street": "Калба",
            "house.year": 2023,
            "flat.building": 3,
            "ceiling": 3,
            "flat.parking": 1
        }
    },
    {
        "id": "3537",
        "name": "Baizaman",
        "details": {
            "map.lat": 51.128066004765,
            "map.lon": 71.361882668395,
            "map.zoom": 12,
            "map.street": "Е-15",
            "map.house_num": "5",
            "map.corner_street": "",
            "house.year": 2026,
            "flat.building": 3,
            "ceiling": 3,
            "flat.parking": 1
        }
    },
    {
        "id": "2126",
        "name": "Balausa",
        "details": {
            "map.lat": 51.111926902637,
            "map.lon": 71.521259369649,
            "map.zoom": 12,
            "map.street": "Нажимеденова",
            "map.house_num": "",
            "map.corner_street": "",
            "house.year": 2022,
            "flat.building": 3,
            "ceiling": 2.7,
            "flat.parking": 1,
            "house.floor_num": 9
        }
    },
    {
        "id": "1753",
        "name": "Baqyt",
        "details": {
            "map.lat": 51.138960709365,
            "map.lon": 71.462377160855,
            "map.zoom": 12,
            "map.street": "Тауелсыздык",
            "map.house_num": "",
            "map.corner_street": "Бауыржан Момышулы",
            "house.year": 2019,
            "flat.building": 1,
            "ceiling": 2.9,
            "flat.parking": 1,
            "house.floor_num": 9
        }
    },
    {
        "id": "1205",
        "name": "Baqyt Premium",
        "details": {
            "map.lat": 51.105603730407,
            "map.lon": 71.434851352635,
            "map.zoom": 17,
            "map.street": "Алихана Бокейханова",
            "map.house_num": "11",
            "map.corner_street": "",
            "house.year": 2018,
            "flat.building": 1,
            "ceiling": 3,
            "flat.parking": 1,
            "house.floor_num": 9
        }
    },
    {
        "id": "2051",
        "name": "Barakat",
        "details": {
            "map.lat": 51.183007266472,
            "map.lon": 71.436910807419,
            "map.zoom": 12,
            "map.street": "Ыкылас Дукенулы",
            "map.house_num": "31/5",
            "map.corner_street": "",
            "house.year": 2022,
            "flat.building": 3,
            "ceiling": 2.7,
            "flat.parking": 0,
            "house.floor_num": 13
        }
    },
    {
        "id": "1705",
        "name": "Barys City",
        "details": {
            "map.lat": 51.112435459812,
            "map.lon": 71.400544656787,
            "map.zoom": 12,
            "map.street": "Туран",
            "map.house_num": "",
            "map.corner_street": "Орынбор",
            "house.year": 2018,
            "flat.building": 1,
            "ceiling": 3,
            "flat.parking": 1,
            "house.floor_num": 9
        }
    },
    {
        "id": "1441",
        "name": "Baspana",
        "details": {
            "map.lat": 51.12398570250309,
            "map.lon": 71.39398366272977,
            "map.zoom": 17,
            "map.street": "Толе би",
            "map.house_num": "51",
            "map.corner_street": "",
            "house.year": 2019,
            "flat.building": 3,
            "ceiling": 2.7,
            "flat.parking": 0,
            "house.floor_num": 8
        }
    },
    {
        "id": "1620",
        "name": "Besterek",
        "details": {
            "map.lat": 51.083336331316,
            "map.lon": 71.442053318024,
            "map.zoom": 12,
            "map.street": "Касым Кайсенова",
            "map.house_num": "",
            "map.corner_street": "Фариза Онгарсынова",
            "house.year": 2021,
            "flat.building": 3,
            "ceiling": 3,
            "flat.parking": 1
        }
    },
    {
        "id": "3705",
        "name": "Bestogai",
        "details": {
            "map.lat": 51.116044797999,
            "map.lon": 71.506988169215,
            "map.zoom": 15,
            "map.street": "у Аллеи «Мынжылдык»",
            "map.house_num": "",
            "map.corner_street": "",
            "house.year": 2026,
            "flat.building": 3,
            "ceiling": 3,
            "flat.parking": 1,
            "house.floor_num": 12
        }
    },
    {
        "id": "655",
        "name": "Bi Town",
        "details": {
            "map.lat": 51.094237232996,
            "map.lon": 71.440558015427,
            "map.zoom": 12,
            "map.street": "Улы Дала",
            "map.house_num": "18-22",
            "map.corner_street": "",
            "house.year": 2015,
            "flat.building": 1,
            "ceiling": 2.7,
            "flat.parking": 0,
            "house.floor_num": 5
        }
    },
    {
        "id": "585",
        "name": "Bi Village",
        "details": {
            "map.lat": 51.092109962758,
            "map.lon": 71.431902012118,
            "map.zoom": 12,
            "map.street": "Ұлы Дала",
            "map.house_num": "23",
            "map.corner_street": "",
            "house.year": 2016,
            "flat.building": 3,
            "ceiling": 2.7,
            "flat.parking": 1,
            "house.floor_num": 2
        }
    },
    {
        "id": "826",
        "name": "Birlik House",
        "details": {
            "map.lat": 51.098873801512,
            "map.lon": 71.431171873468,
            "map.zoom": 17,
            "map.street": "Алихан Бокейхан",
            "map.house_num": "28/1",
            "map.corner_street": "",
            "house.year": 2017,
            "flat.building": 1,
            "ceiling": 3.7,
            "flat.parking": 1,
            "house.floor_num": 6
        }
    },
    {
        "id": "3719",
        "name": "Bosaga",
        "details": {
            "map.lat": 51.086180063523,
            "map.lon": 71.484316505168,
            "map.zoom": 16,
            "map.street": "Е 117",
            "map.house_num": "55",
            "map.corner_street": "",
            "house.year": 2026,
            "flat.building": 3,
            "ceiling": 3,
            "flat.parking": 1,
            "house.floor_num": 9
        }
    },
    {
        "id": "1262",
        "name": "Boston Comfort House",
        "details": {
            "map.lat": 51.121439197443,
            "map.lon": 71.283094882965,
            "map.zoom": 12,
            "map.street": "Кургальжинское шоссе",
            "map.house_num": "108",
            "map.corner_street": "",
            "house.year": 2021,
            "flat.building": 1,
            "ceiling": 2.7,
            "flat.parking": 1,
            "house.floor_num": 4
        }
    },
    {
        "id": "2001",
        "name": "Boston Comfort House 2",
        "details": {
            "map.lat": 51.120934176989,
            "map.lon": 71.289540036205,
            "map.zoom": 9,
            "map.street": "Кургальжинское шоссе",
            "map.house_num": "104",
            "map.corner_street": "",
            "house.year": 2025,
            "flat.building": 1,
            "ceiling": 2.85,
            "flat.parking": 1,
            "house.floor_num": 5
        }
    },
    {
        "id": "3289",
        "name": "Bozjyra",
        "details": {
            "map.lat": 51.084766014069,
            "map.lon": 71.479729916015,
            "map.zoom": 12,
            "map.street": "Улы Дала",
            "map.house_num": "28",
            "map.corner_street": "",
            "house.year": 2025,
            "flat.building": 3,
            "ceiling": 3,
            "flat.parking": 1,
            "house.floor_num": 9
        }
    },
    {
        "id": "1834",
        "name": "Bravo",
        "details": {
            "map.lat": 51.116422329088,
            "map.lon": 71.477195171142,
            "map.zoom": 12,
            "map.street": "Шамши Калдаякова",
            "map.house_num": "",
            "map.corner_street": "Сарыкол",
            "house.year": 2021,
            "flat.building": 3,
            "ceiling": 3,
            "flat.parking": 1
        }
    },
    {
        "id": "1924",
        "name": "Bravo Family",
        "details": {
            "map.lat": 51.115647151636,
            "map.lon": 71.485969345797,
            "map.zoom": 12,
            "map.street": "Нажимеденова",
            "map.house_num": "",
            "map.corner_street": "",
            "house.year": 2020,
            "flat.building": 3,
            "ceiling": 3,
            "flat.parking": 1
        }
    },
    {
        "id": "1637",
        "name": "Bright Star",
        "details": {
            "map.lat": 51.169958677573,
            "map.lon": 71.368087696093,
            "map.zoom": 12,
            "map.street": "Шаймердена Косшыгулулы",
            "map.house_num": "",
            "map.corner_street": "Шабал Бейсекова",
            "house.year": 2021,
            "flat.building": 1,
            "ceiling": 2.7,
            "flat.parking": 1,
            "house.floor_num": 5
        }
    },
    {
        "id": "1215",
        "name": "Bronx (Бронкс)",
        "details": {
            "map.lat": 51.169832637652,
            "map.lon": 71.393301486969,
            "map.zoom": 16,
            "map.street": "Косшыгулулы",
            "map.house_num": "8/1",
            "map.corner_street": "",
            "house.year": 2019,
            "flat.building": 1,
            "ceiling": 3,
            "flat.parking": 1,
            "house.floor_num": 9
        }
    },
    {
        "id": "1580",
        "name": "Brooklyn",
        "details": {
            "map.lat": 51.10488383189,
            "map.lon": 71.439011881612,
            "map.zoom": 17,
            "map.street": "Е-809",
            "map.house_num": "23",
            "map.corner_street": "",
            "house.year": 2019,
            "flat.building": 1,
            "ceiling": 3,
            "flat.parking": 1,
            "house.floor_num": 10
        }
    },
    {
        "id": "1694",
        "name": "Brussels",
        "details": {
            "map.lat": 51.142212581869,
            "map.lon": 71.368182966301,
            "map.zoom": 12,
            "map.street": "Айтматова",
            "map.house_num": "",
            "map.corner_street": "Мухамедханова",
            "house.year": 2020,
            "flat.building": 1,
            "ceiling": 3,
            "flat.parking": 1,
            "house.floor_num": 9
        }
    },
    {
        "id": "1896",
        "name": "Bucharest",
        "details": {
            "map.lat": 51.111286340144,
            "map.lon": 71.438400126121,
            "map.zoom": 12,
            "map.street": "А. Бокейханова",
            "map.house_num": "",
            "map.corner_street": "",
            "house.year": 2021,
            "flat.building": 1,
            "ceiling": 2.7,
            "flat.parking": 1,
            "house.floor_num": 10
        }
    },
    {
        "id": "1792",
        "name": "Budapest",
        "details": {
            "map.lat": 51.077411908549,
            "map.lon": 71.397071723134,
            "map.zoom": 12,
            "map.street": "Кабанбай батыра",
            "map.house_num": "59",
            "map.corner_street": "",
            "house.year": 2020,
            "flat.building": 1,
            "ceiling": 2.7,
            "flat.parking": 0,
            "house.floor_num": 12
        }
    },
    {
        "id": "2040",
        "name": "Burabay",
        "details": {
            "map.lat": 51.109154359602,
            "map.lon": 71.533199647723,
            "map.zoom": 14,
            "map.street": "Ж. Нажимеденова",
            "map.house_num": "",
            "map.corner_street": "А62",
            "house.year": 2022,
            "flat.building": 3,
            "ceiling": 2.7,
            "flat.parking": 1
        }
    },
    {
        "id": "1831",
        "name": "Canada",
        "details": {
            "map.lat": 51.131619559726,
            "map.lon": 71.384323271772,
            "map.zoom": 12,
            "map.street": "Анет баба",
            "map.house_num": "2",
            "map.corner_street": "",
            "house.year": 2021,
            "flat.building": 1,
            "ceiling": 3,
            "flat.parking": 1,
            "house.floor_num": 9
        }
    },
    {
        "id": "3688",
        "name": "Capital Park. Art",
        "details": {
            "map.lat": 51.102519937891,
            "map.lon": 71.450931397467,
            "map.zoom": 15,
            "map.street": "​Аль-Фараби",
            "map.house_num": "3/2",
            "map.corner_street": "",
            "house.year": 2026,
            "flat.building": 3,
            "ceiling": 3,
            "flat.parking": 1
        }
    },
    {
        "id": "3195",
        "name": "Capital Park. Emotions",
        "details": {
            "map.lat": 51.097700770682,
            "map.lon": 71.446269940646,
            "map.zoom": 13,
            "map.street": "Бухар Жырау",
            "map.house_num": "33",
            "map.corner_street": "",
            "house.year": 2026,
            "flat.building": 3,
            "ceiling": 3,
            "flat.parking": 1
        }
    },
    {
        "id": "2506",
        "name": "Capital Park. Flowers",
        "details": {
            "map.lat": 51.097179652802,
            "map.lon": 71.45056145359,
            "map.zoom": 16,
            "map.street": "Аль-Фараби",
            "map.house_num": "9, 9/1, 9/2, 11, 11/1",
            "map.corner_street": "",
            "house.year": 2022,
            "flat.building": 3,
            "ceiling": 3,
            "flat.parking": 1
        }
    },
    {
        "id": "2507",
        "name": "Capital Park. Light",
        "details": {
            "map.lat": 51.104735111851,
            "map.lon": 71.451213955825,
            "map.zoom": 18,
            "map.street": "Аль-Фараби",
            "map.house_num": "1/1",
            "map.corner_street": "",
            "house.year": 2020,
            "flat.building": 3,
            "ceiling": 3,
            "flat.parking": 1
        }
    },
    {
        "id": "3551",
        "name": "Capital Park. Melody",
        "details": {
            "map.lat": 51.100081415114,
            "map.lon": 71.439426566226,
            "map.zoom": 16,
            "map.street": "Жошы хан",
            "map.house_num": "10",
            "map.corner_street": "",
            "house.year": 2026,
            "flat.building": 3,
            "ceiling": 3,
            "flat.parking": 1,
            "house.floor_num": 17
        }
    },
    {
        "id": "2521",
        "name": "Capital Park. Water",
        "details": {
            "map.lat": 51.103257101218,
            "map.lon": 71.449316903137,
            "map.zoom": 12,
            "map.street": "Керей-Жанибек хандар",
            "map.house_num": "50/3",
            "map.corner_street": "",
            "house.year": 2022,
            "flat.building": 3,
            "ceiling": 3,
            "flat.parking": 1
        }
    },
    {
        "id": "3186",
        "name": "Capital Park.Sky",
        "details": {
            "map.lat": 51.101627810333,
            "map.lon": 71.451746913561,
            "map.zoom": 15,
            "map.street": "​Аль-Фараби",
            "map.house_num": "3",
            "map.corner_street": "",
            "house.year": 2025,
            "flat.building": 3,
            "ceiling": 3,
            "flat.parking": 1
        }
    },
    {
        "id": "3765",
        "name": "Casa Mia",
        "details": {
            "map.lat": 51.15533731698,
            "map.lon": 71.369509294973,
            "map.zoom": 17,
            "map.street": "Чингиз Айтматов",
            "map.house_num": "63",
            "map.corner_street": "",
            "house.year": 2026,
            "flat.building": 3,
            "ceiling": 3,
            "flat.parking": 1
        }
    },
    {
        "id": "234",
        "name": "Caspian Palace",
        "details": {
            "map.lat": 51.116676958381,
            "map.lon": 71.439353260793,
            "map.zoom": 16,
            "map.street": "Алихана Бокейхана",
            "map.house_num": "6",
            "map.corner_street": "",
            "house.year": 2012,
            "flat.building": 3,
            "ceiling": 3.2,
            "flat.parking": 1,
            "house.floor_num": 9
        }
    },
    {
        "id": "3243",
        "name": "Castle House",
        "details": {
            "map.lat": 51.145551816567,
            "map.lon": 71.40425579769,
            "map.zoom": 16,
            "map.street": "Шоссе Коргалжын",
            "map.house_num": "5",
            "map.corner_street": "",
            "house.year": 2016,
            "flat.building": 3,
            "ceiling": 3,
            "flat.parking": 1,
            "house.floor_num": 6
        }
    },
    {
        "id": "1226",
        "name": "Central Park",
        "details": {
            "map.lat": 51.153162317487,
            "map.lon": 71.410188674927,
            "map.zoom": 12,
            "map.street": "Туран",
            "map.house_num": "3, 3в, 3д, 3/1, 3/2, 3/3, 3/4, 5/2, 5/3, 5/4, 5/5, 5/6, 5/7, 5/8, 5/9",
            "map.corner_street": "",
            "house.year": 2019,
            "flat.building": 3,
            "ceiling": 3,
            "flat.parking": 1,
            "house.floor_num": 9
        }
    },
    {
        "id": "1893",
        "name": "Champion",
        "details": {
            "map.lat": 51.11030245473367,
            "map.lon": 71.39972944753978,
            "map.zoom": 16,
            "map.street": "Туран",
            "map.house_num": "46Б, 46Б/1, 46Б/2",
            "map.corner_street": "",
            "house.year": 2021,
            "flat.building": 1,
            "ceiling": 3,
            "flat.parking": 1,
            "house.floor_num": 9
        }
    },
    {
        "id": "789",
        "name": "Citylake",
        "details": {
            "map.lat": 51.130434623522,
            "map.lon": 71.371114670181,
            "map.zoom": 12,
            "map.street": "Сыганак",
            "map.house_num": "6",
            "map.corner_street": "Култегин",
            "house.year": 2017,
            "flat.building": 3,
            "ceiling": 3,
            "flat.parking": 1,
            "house.floor_num": 16
        }
    },
    {
        "id": "3632",
        "name": "Classic",
        "details": {
            "map.lat": 51.109390953665,
            "map.lon": 71.521447387901,
            "map.zoom": 15,
            "map.street": "улица Жұмекен Нәжімеденов",
            "map.house_num": "52б",
            "map.corner_street": "",
            "house.year": 2026,
            "flat.building": 1,
            "ceiling": 2.8,
            "flat.parking": 1,
            "house.floor_num": 9
        }
    },
    {
        "id": "680",
        "name": "Clubhouse",
        "details": {
            "map.lat": 51.097727916583,
            "map.lon": 71.431842081511,
            "map.zoom": 12,
            "map.street": "Алихана Бокейханова",
            "map.house_num": "26",
            "map.corner_street": "",
            "house.year": 2014,
            "flat.building": 3,
            "ceiling": 3,
            "flat.parking": 1,
            "house.floor_num": 8
        }
    },
    {
        "id": "1616",
        "name": "College",
        "details": {
            "map.lat": 51.145468572075,
            "map.lon": 71.375076211891,
            "map.zoom": 12,
            "map.street": "Шоссе Коргалжын",
            "map.house_num": "15/1",
            "map.corner_street": "",
            "house.year": 2020,
            "flat.building": 1,
            "ceiling": 3,
            "flat.parking": 0,
            "house.floor_num": 9
        }
    },
    {
        "id": "750",
        "name": "Comfort House",
        "details": {
            "map.lat": 51.145506567189,
            "map.lon": 71.390909372711,
            "map.zoom": 12,
            "map.street": "Умай Ана",
            "map.house_num": "8",
            "map.corner_street": "",
            "house.year": 2015,
            "flat.building": 1,
            "ceiling": 3,
            "flat.parking": 1,
            "house.floor_num": 6
        }
    },
    {
        "id": "3138",
        "name": "Comfort Tandau",
        "details": {
            "map.lat": 51.080020821755,
            "map.lon": 71.382726430838,
            "map.zoom": 18,
            "map.street": "Е103",
            "map.house_num": "уч. 5",
            "map.corner_street": "",
            "house.year": 2024,
            "flat.building": 1,
            "ceiling": 2.7,
            "flat.parking": 0,
            "house.floor_num": 5
        }
    },
    {
        "id": "656",
        "name": "Comfort Town",
        "details": {
            "map.lat": 51.08845627563,
            "map.lon": 71.44677920386,
            "map.zoom": 12,
            "map.street": "38 улица",
            "map.house_num": "22-27",
            "map.corner_street": "",
            "house.year": 2015,
            "flat.building": 1,
            "ceiling": 2.7,
            "flat.parking": 1,
            "house.floor_num": 6
        }
    },
    {
        "id": "2087",
        "name": "Compass North",
        "details": {
            "map.lat": 51.105718760745,
            "map.lon": 71.528443451964,
            "map.zoom": 12,
            "map.street": "Шамши Калдаяков",
            "map.house_num": "58, 58/1, 58/2",
            "map.corner_street": "",
            "house.year": 2022,
            "flat.building": 3,
            "ceiling": 3,
            "flat.parking": 1,
            "house.floor_num": 9
        }
    },
    {
        "id": "1716",
        "name": "Copenhagen",
        "details": {
            "map.lat": 51.146452876534,
            "map.lon": 71.383807959585,
            "map.zoom": 12,
            "map.street": "Максут Нарикбаев",
            "map.house_num": "22",
            "map.corner_street": "",
            "house.year": 2020,
            "flat.building": 1,
            "ceiling": 3,
            "flat.parking": 1,
            "house.floor_num": 10
        }
    },
    {
        "id": "1661",
        "name": "Cosmic City",
        "details": {
            "map.lat": 51.079354658411,
            "map.lon": 71.379865464489,
            "map.zoom": 12,
            "map.street": "Туран",
            "map.house_num": "89",
            "map.corner_street": "",
            "house.year": 2023,
            "flat.building": 3,
            "ceiling": 2.75,
            "flat.parking": 1
        }
    },
    {
        "id": "1154",
        "name": "Crocus City",
        "details": {
            "map.lat": 51.098408618086,
            "map.lon": 71.410766186391,
            "map.zoom": 15,
            "map.street": "Улы дала",
            "map.house_num": "5/2",
            "map.corner_street": "",
            "house.year": 2021,
            "flat.building": 3,
            "ceiling": 3,
            "flat.parking": 1,
            "house.floor_num": 14
        }
    },
    {
        "id": "804",
        "name": "Crystal Apartments",
        "details": {
            "map.lat": 51.118263451151,
            "map.lon": 71.41589832502,
            "map.zoom": 16,
            "map.street": "Алматы",
            "map.house_num": "1/1, 1/2",
            "map.corner_street": "",
            "house.year": 2018,
            "flat.building": 1,
            "ceiling": 3.2,
            "flat.parking": 0,
            "house.floor_num": 12
        }
    },
    {
        "id": "3645",
        "name": "DARMEN",
        "details": {
            "map.lat": 51.166815630907,
            "map.lon": 71.44322867604,
            "map.zoom": 17,
            "map.street": "Кенесары",
            "map.house_num": "54",
            "map.corner_street": "",
            "house.year": 2026,
            "flat.building": 3,
            "ceiling": 3,
            "flat.parking": 1,
            "house.floor_num": 17
        }
    },
    {
        "id": "3663",
        "name": "DAUYLPAZ",
        "details": {
            "map.lat": 51.114336503344,
            "map.lon": 71.494154894978,
            "map.zoom": 14,
            "map.street": "Нажимеденов",
            "map.house_num": "30/1",
            "map.corner_street": "",
            "house.year": 2025,
            "flat.building": 1,
            "ceiling": 3,
            "flat.parking": 1
        }
    },
    {
        "id": "1513",
        "name": "DISCOVERY",
        "details": {
            "map.lat": 51.119972709391,
            "map.lon": 71.494465723706,
            "map.zoom": 14,
            "map.street": "Байтурсынова",
            "map.house_num": "35",
            "map.corner_street": "Азербаева",
            "house.year": 2022,
            "flat.building": 3,
            "ceiling": 3,
            "flat.parking": 1,
            "house.floor_num": 9
        }
    },
    {
        "id": "3277",
        "name": "DOMBYRA",
        "details": {
            "map.lat": 51.11377784477,
            "map.lon": 71.49298656651,
            "map.zoom": 16,
            "map.street": "Шамши Калдаяков",
            "map.house_num": "25а",
            "map.corner_street": "Жумекен Нажимеденов",
            "house.year": 2020,
            "flat.building": 1,
            "ceiling": 3,
            "flat.parking": 1
        }
    },
    {
        "id": "3404",
        "name": "DOS",
        "details": {
            "map.lat": 51.105437311642,
            "map.lon": 71.444506935236,
            "map.zoom": 12,
            "map.street": "Керей, Жанибек хандар",
            "map.house_num": "44/6",
            "map.corner_street": "",
            "house.year": 2025,
            "flat.building": 3,
            "ceiling": 3,
            "flat.parking": 1
        }
    },
    {
        "id": "1907",
        "name": "Da Vinci",
        "details": {
            "map.lat": 51.147045675064,
            "map.lon": 71.446737175722,
            "map.zoom": 12,
            "map.street": "Баглан",
            "map.house_num": "5",
            "map.corner_street": "",
            "house.year": 2022,
            "flat.building": 3,
            "ceiling": 3.3,
            "flat.parking": 1,
            "house.floor_num": 8
        }
    },
    {
        "id": "3122",
        "name": "Dara Residence",
        "details": {
            "map.lat": 51.132733428658,
            "map.lon": 71.432460444421,
            "map.zoom": 15,
            "map.street": "Сарайшык",
            "map.house_num": "34а",
            "map.corner_street": "",
            "house.year": 2024,
            "flat.building": 3,
            "ceiling": 3,
            "flat.parking": 1
        }
    },
    {
        "id": "3415",
        "name": "Dariya",
        "details": {
            "map.lat": 51.129918655684,
            "map.lon": 71.372839574306,
            "map.zoom": 12,
            "map.street": "Сыганак",
            "map.house_num": "12",
            "map.corner_street": "",
            "house.year": 2026,
            "flat.building": 1,
            "ceiling": 3,
            "flat.parking": 1,
            "house.floor_num": 9
        }
    },
    {
        "id": "3675",
        "name": "Dariya",
        "details": {
            "map.lat": 51.127865585773,
            "map.lon": 71.392282685172,
            "map.zoom": 14,
            "map.street": "Сыганак",
            "map.house_num": "12",
            "map.corner_street": "",
            "house.year": 2026,
            "flat.building": 1,
            "ceiling": 3,
            "flat.parking": 1,
            "house.floor_num": 9
        }
    },
    {
        "id": "2141",
        "name": "Daryn",
        "details": {
            "map.lat": 51.164485099332,
            "map.lon": 71.456210085711,
            "map.zoom": 17,
            "map.street": "Кенесары",
            "map.house_num": "62",
            "map.corner_street": "",
            "house.year": 2023,
            "flat.building": 1,
            "ceiling": 3,
            "flat.parking": 1,
            "house.floor_num": 10
        }
    },
    {
        "id": "2730",
        "name": "Dastur",
        "details": {
            "map.lat": 51.097679364643,
            "map.lon": 71.386452913175,
            "map.zoom": 12,
            "map.street": "Толе би",
            "map.house_num": "25, 25А, 14, 14/1, 12, 12/2, 12/1",
            "map.corner_street": "",
            "house.year": 2022,
            "flat.building": 3,
            "ceiling": 3,
            "flat.parking": 1
        }
    },
    {
        "id": "3157",
        "name": "Dauir",
        "details": {
            "map.lat": 51.119998835606,
            "map.lon": 71.390724190781,
            "map.zoom": 16,
            "map.street": "Казыбек би",
            "map.house_num": "7/1",
            "map.corner_street": "",
            "house.year": 2025,
            "flat.building": 1,
            "ceiling": 3,
            "flat.parking": 1,
            "house.floor_num": 9
        }
    },
    {
        "id": "2935",
        "name": "Dauletti Qalashyq",
        "details": {
            "map.lat": 51.115678443791,
            "map.lon": 71.521672158158,
            "map.zoom": 13,
            "map.street": "Байтурсынова",
            "map.house_num": "",
            "map.corner_street": "А426",
            "house.year": 2025,
            "flat.building": 3,
            "ceiling": 3,
            "flat.parking": 0
        }
    },
    {
        "id": "3571",
        "name": "Dauys",
        "details": {
            "map.lat": 51.113501433354,
            "map.lon": 71.498394012233,
            "map.zoom": 13,
            "map.street": "Жумекен Нажимеденов",
            "map.house_num": "28",
            "map.corner_street": "",
            "house.year": 2025,
            "flat.building": 3,
            "ceiling": 3,
            "flat.parking": 1
        }
    },
    {
        "id": "3566",
        "name": "Delta",
        "details": {
            "map.lat": 51.126433730996,
            "map.lon": 71.363986730466,
            "map.zoom": 12,
            "map.street": "Жубан Молдагалиев",
            "map.house_num": "3",
            "map.corner_street": "",
            "house.year": 2024,
            "flat.building": 3,
            "ceiling": 3,
            "flat.parking": 1
        }
    },
    {
        "id": "654",
        "name": "Deluxe Town",
        "details": {
            "map.lat": 51.086500029695,
            "map.lon": 71.436236461886,
            "map.zoom": 12,
            "map.street": "Табыс",
            "map.house_num": "12",
            "map.corner_street": "",
            "house.year": 2015,
            "flat.building": 3,
            "ceiling": 3,
            "flat.parking": 1,
            "house.floor_num": 4
        }
    },
    {
        "id": "1900",
        "name": "Diana",
        "details": {
            "map.lat": 51.129596150935,
            "map.lon": 71.492082763337,
            "map.zoom": 0,
            "map.street": "Айнакол",
            "map.house_num": "",
            "map.corner_street": "А195",
            "house.year": 2023,
            "flat.building": 3,
            "ceiling": 2.85,
            "flat.parking": 1
        }
    },
    {
        "id": "1065",
        "name": "Dream City",
        "details": {
            "map.lat": 51.096549842613,
            "map.lon": 71.424636191901,
            "map.zoom": 12,
            "map.street": "Мангилик Ел",
            "map.house_num": "45",
            "map.corner_street": "",
            "house.year": 2019,
            "flat.building": 3,
            "ceiling": null,
            "flat.parking": 0,
            "house.floor_num": 18
        }
    },
    {
        "id": "2766",
        "name": "Dream Town",
        "details": {
            "map.lat": 51.123343248603,
            "map.lon": 71.377701756719,
            "map.zoom": 15,
            "map.street": "Е-20",
            "map.house_num": "",
            "map.corner_street": "",
            "house.year": 2022,
            "flat.building": 1,
            "ceiling": 2.8,
            "flat.parking": 0,
            "house.floor_num": 9
        }
    },
    {
        "id": "2757",
        "name": "Dublin",
        "details": {
            "map.lat": 51.127966268808,
            "map.lon": 71.361608505249,
            "map.zoom": 15,
            "map.street": "Ч. Айтматова",
            "map.house_num": "",
            "map.corner_street": "Ж. Молдагалиева",
            "house.year": 2024,
            "flat.building": 1,
            "ceiling": 3,
            "flat.parking": 0,
            "house.floor_num": 12
        }
    },
    {
        "id": "3633",
        "name": "ECO CITY",
        "details": {
            "map.lat": 51.150724574226,
            "map.lon": 71.352791924165,
            "map.zoom": 15,
            "map.street": "ул. Е418 т",
            "map.house_num": "Кл-100",
            "map.corner_street": "",
            "house.year": 2027,
            "flat.building": 3,
            "ceiling": 3,
            "flat.parking": 1,
            "house.floor_num": 9
        }
    },
    {
        "id": "2653",
        "name": "EXPO AVENUE",
        "details": {
            "map.lat": 51.086590950214,
            "map.lon": 71.402111678526,
            "map.zoom": 17,
            "map.street": "Кабанбай батыра",
            "map.house_num": "64",
            "map.corner_street": "Рыскулова",
            "house.year": 2022,
            "flat.building": 3,
            "ceiling": 3,
            "flat.parking": 1
        }
    },
    {
        "id": "2481",
        "name": "Eco Park",
        "details": {
            "map.lat": 51.127440933242,
            "map.lon": 71.390980481992,
            "map.zoom": 17,
            "map.street": "Сыганак",
            "map.house_num": "4",
            "map.corner_street": "",
            "house.year": 2025,
            "flat.building": 3,
            "ceiling": 3,
            "flat.parking": 1
        }
    },
    {
        "id": "3496",
        "name": "Econom rooms",
        "details": {
            "map.lat": 51.14934523588152,
            "map.lon": 71.34973455597365,
            "map.zoom": 16,
            "map.street": "Шоссе Коргалжын",
            "map.house_num": "28",
            "map.corner_street": "",
            "house.year": 2015,
            "flat.building": 1,
            "ceiling": 2.7,
            "flat.parking": 1,
            "house.floor_num": 3
        }
    },
    {
        "id": "699",
        "name": "Edel",
        "details": {
            "map.lat": 51.161335896468,
            "map.lon": 71.408834930771,
            "map.zoom": 12,
            "map.street": "Сарыарка",
            "map.house_num": "3а",
            "map.corner_street": "",
            "house.year": 2016,
            "flat.building": 3,
            "ceiling": null,
            "flat.parking": 1,
            "house.floor_num": 14
        }
    },
    {
        "id": "3638",
        "name": "Eleven",
        "details": {
            "map.lat": 51.128550741592,
            "map.lon": 71.373049689649,
            "map.zoom": 15,
            "map.street": "Култегин",
            "map.house_num": "4",
            "map.corner_street": "",
            "house.year": 2025,
            "flat.building": 3,
            "ceiling": 3,
            "flat.parking": 1
        }
    },
    {
        "id": "2518",
        "name": "Energy",
        "details": {
            "map.lat": 51.162705459422,
            "map.lon": 71.373022192493,
            "map.zoom": 16,
            "map.street": "Айтматов",
            "map.house_num": "71",
            "map.corner_street": "",
            "house.year": 2024,
            "flat.building": 1,
            "ceiling": 3,
            "flat.parking": 1,
            "house.floor_num": 12
        }
    },